{
  "venues": [
    {
      "id": "nfl-arrowhead",
      "name": "GEHA Field at Arrowhead Stadium",
      "team": "Kansas City Chiefs",
      "league": "NFL",
      "city": "Kansas City",
      "country": "USA",
      "lat": 39.0489,
      "lng": -94.4839,
      "capacity": 76416,
      "timezone": "America/Chicago"
    },
    {
      "id": "nfl-sofi",
      "name": "SoFi Stadium",
      "team": "Los Angeles Rams / Chargers",
      "league": "NFL",
      "city": "Inglewood",
      "country": "USA",
      "lat": 33.9535,
      "lng": -118.3392,
      "capacity": 70240,
      "timezone": "America/Los_Angeles"
    },
    {
      "id": "nfl-lambeau",
      "name": "Lambeau Field",
      "team": "Green Bay Packers",
      "league": "NFL",
      "city": "Green Bay",
      "country": "USA",
      "lat": 44.5013,
      "lng": -88.0622,
      "capacity": 81441,
      "timezone": "America/Chicago"
    },
    {
      "id": "nfl-metlife",
      "name": "MetLife Stadium",
      "team": "New York Giants / Jets",
      "league": "NFL",
      "city": "East Rutherford",
      "country": "USA",
      "lat": 40.8135,
      "lng": -74.0745,
      "capacity": 82500,
      "timezone": "America/New_York"
    },
    {
      "id": "nfl-atandt",
      "name": "AT&T Stadium",
      "team": "Dallas Cowboys",
      "league": "NFL",
      "city": "Arlington",
      "country": "USA",
      "lat": 32.7473,
      "lng": -97.0945,
      "capacity": 80000,
      "timezone": "America/Chicago"
    },
    {
      "id": "nfl-levis",
      "name": "Levi's Stadium",
      "team": "San Francisco 49ers",
      "league": "NFL",
      "city": "Santa Clara",
      "country": "USA",
      "lat": 37.4033,
      "lng": -121.9694,
      "capacity": 68500,
      "timezone": "America/Los_Angeles"
    },
    {
      "id": "nfl-soldier",
      "name": "Soldier Field",
      "team": "Chicago Bears",
      "league": "NFL",
      "city": "Chicago",
      "country": "USA",
      "lat": 41.8623,
      "lng": -87.6167,
      "capacity": 61500,
      "timezone": "America/Chicago"
    },
    {
      "id": "nfl-gillette",
      "name": "Gillette Stadium",
      "team": "New England Patriots",
      "league": "NFL",
      "city": "Foxborough",
      "country": "USA",
      "lat": 42.0909,
      "lng": -71.2643,
      "capacity": 65878,
      "timezone": "America/New_York"
    },
    {
      "id": "nfl-huntington",
      "name": "Huntington Bank Field",
      "team": "Cleveland Browns",
      "league": "NFL",
      "city": "Cleveland",
      "country": "USA",
      "lat": 41.5061,
      "lng": -81.6995,
      "capacity": 67895,
      "timezone": "America/New_York"
    },
    {
      "id": "nfl-acrisure",
      "name": "Acrisure Stadium",
      "team": "Pittsburgh Steelers",
      "league": "NFL",
      "city": "Pittsburgh",
      "country": "USA",
      "lat": 40.4468,
      "lng": -80.0158,
      "capacity": 68400,
      "timezone": "America/New_York"
    },
    {
      "id": "nfl-mandt",
      "name": "M&T Bank Stadium",
      "team": "Baltimore Ravens",
      "league": "NFL",
      "city": "Baltimore",
      "country": "USA",
      "lat": 39.278,
      "lng": -76.6227,
      "capacity": 71008,
      "timezone": "America/New_York"
    },
    {
      "id": "nfl-northwest",
      "name": "Northwest Stadium",
      "team": "Washington Commanders",
      "league": "NFL",
      "city": "Landover",
      "country": "USA",
      "lat": 38.9078,
      "lng": -76.8645,
      "capacity": 67617,
      "timezone": "America/New_York"
    },
    {
      "id": "nfl-lincoln",
      "name": "Lincoln Financial Field",
      "team": "Philadelphia Eagles",
      "league": "NFL",
      "city": "Philadelphia",
      "country": "USA",
      "lat": 39.9008,
      "lng": -75.1675,
      "capacity": 69796,
      "timezone": "America/New_York"
    },
    {
      "id": "nfl-bankofamerica",
      "name": "Bank of America Stadium",
      "team": "Carolina Panthers",
      "league": "NFL",
      "city": "Charlotte",
      "country": "USA",
      "lat": 35.2258,
      "lng": -80.8528,
      "capacity": 74867,
      "timezone": "America/New_York"
    },
    {
      "id": "nfl-mercedesbenz",
      "name": "Mercedes-Benz Stadium",
      "team": "Atlanta Falcons",
      "league": "NFL",
      "city": "Atlanta",
      "country": "USA",
      "lat": 33.7554,
      "lng": -84.4008,
      "capacity": 71000,
      "timezone": "America/New_York"
    },
    {
      "id": "nfl-raymond",
      "name": "Raymond James Stadium",
      "team": "Tampa Bay Buccaneers",
      "league": "NFL",
      "city": "Tampa",
      "country": "USA",
      "lat": 27.9759,
      "lng": -82.5033,
      "capacity": 65890,
      "timezone": "America/New_York"
    },
    {
      "id": "nfl-everbank",
      "name": "EverBank Stadium",
      "team": "Jacksonville Jaguars",
      "league": "NFL",
      "city": "Jacksonville",
      "country": "USA",
      "lat": 30.3239,
      "lng": -81.6373,
      "capacity": 69132,
      "timezone": "America/New_York"
    },
    {
      "id": "nfl-nissan",
      "name": "Nissan Stadium",
      "team": "Tennessee Titans",
      "league": "NFL",
      "city": "Nashville",
      "country": "USA",
      "lat": 36.1665,
      "lng": -86.7713,
      "capacity": 69143,
      "timezone": "America/Chicago"
    },
    {
      "id": "nfl-paycor",
      "name": "Paycor Stadium",
      "team": "Cincinnati Bengals",
      "league": "NFL",
      "city": "Cincinnati",
      "country": "USA",
      "lat": 39.0955,
      "lng": -84.516,
      "capacity": 65515,
      "timezone": "America/New_York"
    },
    {
      "id": "nfl-lucas",
      "name": "Lucas Oil Stadium",
      "team": "Indianapolis Colts",
      "league": "NFL",
      "city": "Indianapolis",
      "country": "USA",
      "lat": 39.7601,
      "lng": -86.1639,
      "capacity": 70000,
      "timezone": "America/Indiana/Indianapolis"
    },
    {
      "id": "nfl-ford",
      "name": "Ford Field",
      "team": "Detroit Lions",
      "league": "NFL",
      "city": "Detroit",
      "country": "USA",
      "lat": 42.34,
      "lng": -83.0456,
      "capacity": 65000,
      "timezone": "America/Detroit"
    },
    {
      "id": "nfl-usbank",
      "name": "U.S. Bank Stadium",
      "team": "Minnesota Vikings",
      "league": "NFL",
      "city": "Minneapolis",
      "country": "USA",
      "lat": 44.9736,
      "lng": -93.2575,
      "capacity": 66860,
      "timezone": "America/Chicago"
    },
    {
      "id": "nfl-empower",
      "name": "Empower Field at Mile High",
      "team": "Denver Broncos",
      "league": "NFL",
      "city": "Denver",
      "country": "USA",
      "lat": 39.7439,
      "lng": -105.0201,
      "capacity": 76125,
      "timezone": "America/Denver"
    },
    {
      "id": "nfl-allegiant",
      "name": "Allegiant Stadium",
      "team": "Las Vegas Raiders",
      "league": "NFL",
      "city": "Las Vegas",
      "country": "USA",
      "lat": 36.0909,
      "lng": -115.1833,
      "capacity": 65000,
      "timezone": "America/Los_Angeles"
    },
    {
      "id": "nfl-statefarm",
      "name": "State Farm Stadium",
      "team": "Arizona Cardinals",
      "league": "NFL",
      "city": "Glendale",
      "country": "USA",
      "lat": 33.5276,
      "lng": -112.2626,
      "capacity": 72200,
      "timezone": "America/Phoenix"
    },
    {
      "id": "nfl-lumen",
      "name": "Lumen Field",
      "team": "Seattle Seahawks",
      "league": "NFL",
      "city": "Seattle",
      "country": "USA",
      "lat": 47.5952,
      "lng": -122.3316,
      "capacity": 69000,
      "timezone": "America/Los_Angeles"
    },
    {
      "id": "nfl-caesars",
      "name": "Caesars Superdome",
      "team": "New Orleans Saints",
      "league": "NFL",
      "city": "New Orleans",
      "country": "USA",
      "lat": 29.9511,
      "lng": -90.0812,
      "capacity": 73208,
      "timezone": "America/Chicago"
    },
    {
      "id": "nfl-highmark",
      "name": "Highmark Stadium",
      "team": "Buffalo Bills",
      "league": "NFL",
      "city": "Orchard Park",
      "country": "USA",
      "lat": 42.7738,
      "lng": -78.787,
      "capacity": 71608,
      "timezone": "America/New_York"
    },
    {
      "id": "nfl-hardrock",
      "name": "Hard Rock Stadium",
      "team": "Miami Dolphins",
      "league": "NFL",
      "city": "Miami Gardens",
      "country": "USA",
      "lat": 25.958,
      "lng": -80.2389,
      "capacity": 65326,
      "timezone": "America/New_York"
    },
    {
      "id": "nfl-nrg",
      "name": "NRG Stadium",
      "team": "Houston Texans",
      "league": "NFL",
      "city": "Houston",
      "country": "USA",
      "lat": 29.6847,
      "lng": -95.4107,
      "capacity": 72220,
      "timezone": "America/Chicago"
    },
    {
      "id": "nba-crypto",
      "name": "Crypto.com Arena",
      "team": "Los Angeles Lakers",
      "league": "NBA",
      "city": "Los Angeles",
      "country": "USA",
      "lat": 34.043,
      "lng": -118.2673,
      "capacity": 19068,
      "timezone": "America/Los_Angeles"
    },
    {
      "id": "nba-intuit",
      "name": "Intuit Dome",
      "team": "Los Angeles Clippers",
      "league": "NBA",
      "city": "Inglewood",
      "country": "USA",
      "lat": 33.9583,
      "lng": -118.3416,
      "capacity": 18000,
      "timezone": "America/Los_Angeles"
    },
    {
      "id": "nba-chase",
      "name": "Chase Center",
      "team": "Golden State Warriors",
      "league": "NBA",
      "city": "San Francisco",
      "country": "USA",
      "lat": 37.768,
      "lng": -122.3877,
      "capacity": 18064,
      "timezone": "America/Los_Angeles"
    },
    {
      "id": "nba-madison",
      "name": "Madison Square Garden",
      "team": "New York Knicks",
      "league": "NBA",
      "city": "New York",
      "country": "USA",
      "lat": 40.7505,
      "lng": -73.9934,
      "capacity": 19812,
      "timezone": "America/New_York"
    },
    {
      "id": "nba-td",
      "name": "TD Garden",
      "team": "Boston Celtics",
      "league": "NBA",
      "city": "Boston",
      "country": "USA",
      "lat": 42.3662,
      "lng": -71.0621,
      "capacity": 19156,
      "timezone": "America/New_York"
    },
    {
      "id": "nba-united",
      "name": "United Center",
      "team": "Chicago Bulls",
      "league": "NBA",
      "city": "Chicago",
      "country": "USA",
      "lat": 41.8806,
      "lng": -87.6742,
      "capacity": 20917,
      "timezone": "America/Chicago"
    },
    {
      "id": "nba-footprint",
      "name": "Footprint Center",
      "team": "Phoenix Suns",
      "league": "NBA",
      "city": "Phoenix",
      "country": "USA",
      "lat": 33.4457,
      "lng": -112.0712,
      "capacity": 18422,
      "timezone": "America/Phoenix"
    },
    {
      "id": "nba-moda",
      "name": "Moda Center",
      "team": "Portland Trail Blazers",
      "league": "NBA",
      "city": "Portland",
      "country": "USA",
      "lat": 45.5316,
      "lng": -122.6668,
      "capacity": 19393,
      "timezone": "America/Los_Angeles"
    },
    {
      "id": "nba-ball",
      "name": "Ball Arena",
      "team": "Denver Nuggets",
      "league": "NBA",
      "city": "Denver",
      "country": "USA",
      "lat": 39.7487,
      "lng": -105.0077,
      "capacity": 19520,
      "timezone": "America/Denver"
    },
    {
      "id": "nba-aac",
      "name": "American Airlines Center",
      "team": "Dallas Mavericks",
      "league": "NBA",
      "city": "Dallas",
      "country": "USA",
      "lat": 32.7905,
      "lng": -96.8103,
      "capacity": 19200,
      "timezone": "America/Chicago"
    },
    {
      "id": "nba-toyota",
      "name": "Toyota Center",
      "team": "Houston Rockets",
      "league": "NBA",
      "city": "Houston",
      "country": "USA",
      "lat": 29.7508,
      "lng": -95.3621,
      "capacity": 18055,
      "timezone": "America/Chicago"
    },
    {
      "id": "nba-fiserv",
      "name": "Fiserv Forum",
      "team": "Milwaukee Bucks",
      "league": "NBA",
      "city": "Milwaukee",
      "country": "USA",
      "lat": 43.0451,
      "lng": -87.917,
      "capacity": 17341,
      "timezone": "America/Chicago"
    },
    {
      "id": "nba-kaseya",
      "name": "Kaseya Center",
      "team": "Miami Heat",
      "league": "NBA",
      "city": "Miami",
      "country": "USA",
      "lat": 25.7814,
      "lng": -80.187,
      "capacity": 19600,
      "timezone": "America/New_York"
    },
    {
      "id": "nba-barclays",
      "name": "Barclays Center",
      "team": "Brooklyn Nets",
      "league": "NBA",
      "city": "Brooklyn",
      "country": "USA",
      "lat": 40.6826,
      "lng": -73.9754,
      "capacity": 17732,
      "timezone": "America/New_York"
    },
    {
      "id": "nba-wells",
      "name": "Wells Fargo Center",
      "team": "Philadelphia 76ers",
      "league": "NBA",
      "city": "Philadelphia",
      "country": "USA",
      "lat": 39.9012,
      "lng": -75.172,
      "capacity": 20478,
      "timezone": "America/New_York"
    },
    {
      "id": "nba-capital",
      "name": "Capital One Arena",
      "team": "Washington Wizards",
      "league": "NBA",
      "city": "Washington",
      "country": "USA",
      "lat": 38.8981,
      "lng": -77.0209,
      "capacity": 20356,
      "timezone": "America/New_York"
    },
    {
      "id": "nba-statefarm",
      "name": "State Farm Arena",
      "team": "Atlanta Hawks",
      "league": "NBA",
      "city": "Atlanta",
      "country": "USA",
      "lat": 33.7573,
      "lng": -84.3963,
      "capacity": 18118,
      "timezone": "America/New_York"
    },
    {
      "id": "nba-spectrum",
      "name": "Spectrum Center",
      "team": "Charlotte Hornets",
      "league": "NBA",
      "city": "Charlotte",
      "country": "USA",
      "lat": 35.2251,
      "lng": -80.8392,
      "capacity": 19077,
      "timezone": "America/New_York"
    },
    {
      "id": "nba-fedexforum",
      "name": "FedExForum",
      "team": "Memphis Grizzlies",
      "league": "NBA",
      "city": "Memphis",
      "country": "USA",
      "lat": 35.1383,
      "lng": -90.0505,
      "capacity": 17794,
      "timezone": "America/Chicago"
    },
    {
      "id": "nba-smoothie",
      "name": "Smoothie King Center",
      "team": "New Orleans Pelicans",
      "league": "NBA",
      "city": "New Orleans",
      "country": "USA",
      "lat": 29.949,
      "lng": -90.0821,
      "capacity": 16867,
      "timezone": "America/Chicago"
    },
    {
      "id": "nba-paycom",
      "name": "Paycom Center",
      "team": "Oklahoma City Thunder",
      "league": "NBA",
      "city": "Oklahoma City",
      "country": "USA",
      "lat": 35.4634,
      "lng": -97.5151,
      "capacity": 18203,
      "timezone": "America/Chicago"
    },
    {
      "id": "nba-delta",
      "name": "Delta Center",
      "team": "Utah Jazz",
      "league": "NBA",
      "city": "Salt Lake City",
      "country": "USA",
      "lat": 40.7683,
      "lng": -111.9011,
      "capacity": 18306,
      "timezone": "America/Denver"
    },
    {
      "id": "nba-golden1",
      "name": "Golden 1 Center",
      "team": "Sacramento Kings",
      "league": "NBA",
      "city": "Sacramento",
      "country": "USA",
      "lat": 38.5805,
      "lng": -121.4994,
      "capacity": 17500,
      "timezone": "America/Los_Angeles"
    },
    {
      "id": "nba-gainbridge",
      "name": "Gainbridge Fieldhouse",
      "team": "Indiana Pacers",
      "league": "NBA",
      "city": "Indianapolis",
      "country": "USA",
      "lat": 39.7639,
      "lng": -86.1555,
      "capacity": 17923,
      "timezone": "America/Indiana/Indianapolis"
    },
    {
      "id": "nba-rocket-mortgage",
      "name": "Rocket Mortgage FieldHouse",
      "team": "Cleveland Cavaliers",
      "league": "NBA",
      "city": "Cleveland",
      "country": "USA",
      "lat": 41.4964,
      "lng": -81.6882,
      "capacity": 19432,
      "timezone": "America/New_York"
    },
    {
      "id": "nba-little-caesars",
      "name": "Little Caesars Arena",
      "team": "Detroit Pistons",
      "league": "NBA",
      "city": "Detroit",
      "country": "USA",
      "lat": 42.3411,
      "lng": -83.0554,
      "capacity": 20332,
      "timezone": "America/Detroit"
    },
    {
      "id": "nba-target",
      "name": "Target Center",
      "team": "Minnesota Timberwolves",
      "league": "NBA",
      "city": "Minneapolis",
      "country": "USA",
      "lat": 44.9795,
      "lng": -93.2762,
      "capacity": 18978,
      "timezone": "America/Chicago"
    },
    {
      "id": "nba-scotiabank",
      "name": "Scotiabank Arena",
      "team": "Toronto Raptors",
      "league": "NBA",
      "city": "Toronto",
      "country": "Canada",
      "lat": 43.6435,
      "lng": -79.3791,
      "capacity": 19800,
      "timezone": "America/Toronto"
    },
    {
      "id": "nba-frost-bank",
      "name": "Frost Bank Center",
      "team": "San Antonio Spurs",
      "league": "NBA",
      "city": "San Antonio",
      "country": "USA",
      "lat": 29.427,
      "lng": -98.4375,
      "capacity": 18418,
      "timezone": "America/Chicago"
    },
    {
      "id": "mlb-yankee",
      "name": "Yankee Stadium",
      "team": "New York Yankees",
      "league": "MLB",
      "city": "Bronx",
      "country": "USA",
      "lat": 40.8296,
      "lng": -73.9262,
      "capacity": 46537,
      "timezone": "America/New_York"
    },
    {
      "id": "mlb-dodger",
      "name": "Dodger Stadium",
      "team": "Los Angeles Dodgers",
      "league": "MLB",
      "city": "Los Angeles",
      "country": "USA",
      "lat": 34.0739,
      "lng": -118.24,
      "capacity": 56000,
      "timezone": "America/Los_Angeles"
    },
    {
      "id": "mlb-fenway",
      "name": "Fenway Park",
      "team": "Boston Red Sox",
      "league": "MLB",
      "city": "Boston",
      "country": "USA",
      "lat": 42.3467,
      "lng": -71.0972,
      "capacity": 37755,
      "timezone": "America/New_York"
    },
    {
      "id": "mlb-wrigley",
      "name": "Wrigley Field",
      "team": "Chicago Cubs",
      "league": "MLB",
      "city": "Chicago",
      "country": "USA",
      "lat": 41.9484,
      "lng": -87.6553,
      "capacity": 41649,
      "timezone": "America/Chicago"
    },
    {
      "id": "mlb-guaranteed",
      "name": "Guaranteed Rate Field",
      "team": "Chicago White Sox",
      "league": "MLB",
      "city": "Chicago",
      "country": "USA",
      "lat": 41.8299,
      "lng": -87.6338,
      "capacity": 40615,
      "timezone": "America/Chicago"
    },
    {
      "id": "mlb-petco",
      "name": "Petco Park",
      "team": "San Diego Padres",
      "league": "MLB",
      "city": "San Diego",
      "country": "USA",
      "lat": 32.7073,
      "lng": -117.1566,
      "capacity": 42445,
      "timezone": "America/Los_Angeles"
    },
    {
      "id": "mlb-oracle",
      "name": "Oracle Park",
      "team": "San Francisco Giants",
      "league": "MLB",
      "city": "San Francisco",
      "country": "USA",
      "lat": 37.7786,
      "lng": -122.3893,
      "capacity": 41331,
      "timezone": "America/Los_Angeles"
    },
    {
      "id": "mlb-globe",
      "name": "Globe Life Field",
      "team": "Texas Rangers",
      "league": "MLB",
      "city": "Arlington",
      "country": "USA",
      "lat": 32.7474,
      "lng": -97.0836,
      "capacity": 40518,
      "timezone": "America/Chicago"
    },
    {
      "id": "mlb-minute-maid",
      "name": "Minute Maid Park",
      "team": "Houston Astros",
      "league": "MLB",
      "city": "Houston",
      "country": "USA",
      "lat": 29.7572,
      "lng": -95.3556,
      "capacity": 41168,
      "timezone": "America/Chicago"
    },
    {
      "id": "mlb-truist",
      "name": "Truist Park",
      "team": "Atlanta Braves",
      "league": "MLB",
      "city": "Cumberland",
      "country": "USA",
      "lat": 33.8908,
      "lng": -84.4678,
      "capacity": 41084,
      "timezone": "America/New_York"
    },
    {
      "id": "mlb-citi",
      "name": "Citi Field",
      "team": "New York Mets",
      "league": "MLB",
      "city": "Flushing",
      "country": "USA",
      "lat": 40.7571,
      "lng": -73.8458,
      "capacity": 41922,
      "timezone": "America/New_York"
    },
    {
      "id": "mlb-citizens",
      "name": "Citizens Bank Park",
      "team": "Philadelphia Phillies",
      "league": "MLB",
      "city": "Philadelphia",
      "country": "USA",
      "lat": 39.9057,
      "lng": -75.1665,
      "capacity": 42792,
      "timezone": "America/New_York"
    },
    {
      "id": "mlb-nationals",
      "name": "Nationals Park",
      "team": "Washington Nationals",
      "league": "MLB",
      "city": "Washington",
      "country": "USA",
      "lat": 38.873,
      "lng": -77.0074,
      "capacity": 41339,
      "timezone": "America/New_York"
    },
    {
      "id": "mlb-oriole",
      "name": "Oriole Park at Camden Yards",
      "team": "Baltimore Orioles",
      "league": "MLB",
      "city": "Baltimore",
      "country": "USA",
      "lat": 39.2838,
      "lng": -76.6218,
      "capacity": 45971,
      "timezone": "America/New_York"
    },
    {
      "id": "mlb-rogers",
      "name": "Rogers Centre",
      "team": "Toronto Blue Jays",
      "league": "MLB",
      "city": "Toronto",
      "country": "Canada",
      "lat": 43.6414,
      "lng": -79.3894,
      "capacity": 49282,
      "timezone": "America/Toronto"
    },
    {
      "id": "mlb-pnc",
      "name": "PNC Park",
      "team": "Pittsburgh Pirates",
      "league": "MLB",
      "city": "Pittsburgh",
      "country": "USA",
      "lat": 40.4469,
      "lng": -80.0057,
      "capacity": 38362,
      "timezone": "America/New_York"
    },
    {
      "id": "mlb-great-american",
      "name": "Great American Ball Park",
      "team": "Cincinnati Reds",
      "league": "MLB",
      "city": "Cincinnati",
      "country": "USA",
      "lat": 39.0979,
      "lng": -84.5088,
      "capacity": 42319,
      "timezone": "America/New_York"
    },
    {
      "id": "mlb-progressive",
      "name": "Progressive Field",
      "team": "Cleveland Guardians",
      "league": "MLB",
      "city": "Cleveland",
      "country": "USA",
      "lat": 41.4962,
      "lng": -81.6852,
      "capacity": 34788,
      "timezone": "America/New_York"
    },
    {
      "id": "mlb-comerica",
      "name": "Comerica Park",
      "team": "Detroit Tigers",
      "league": "MLB",
      "city": "Detroit",
      "country": "USA",
      "lat": 42.339,
      "lng": -83.0485,
      "capacity": 41083,
      "timezone": "America/Detroit"
    },
    {
      "id": "mlb-american-family",
      "name": "American Family Field",
      "team": "Milwaukee Brewers",
      "league": "MLB",
      "city": "Milwaukee",
      "country": "USA",
      "lat": 43.028,
      "lng": -87.9712,
      "capacity": 41900,
      "timezone": "America/Chicago"
    },
    {
      "id": "mlb-target-field",
      "name": "Target Field",
      "team": "Minnesota Twins",
      "league": "MLB",
      "city": "Minneapolis",
      "country": "USA",
      "lat": 44.9817,
      "lng": -93.2781,
      "capacity": 38544,
      "timezone": "America/Chicago"
    },
    {
      "id": "mlb-busch",
      "name": "Busch Stadium",
      "team": "St. Louis Cardinals",
      "league": "MLB",
      "city": "St. Louis",
      "country": "USA",
      "lat": 38.6226,
      "lng": -90.1928,
      "capacity": 44383,
      "timezone": "America/Chicago"
    },
    {
      "id": "mlb-kauffman",
      "name": "Kauffman Stadium",
      "team": "Kansas City Royals",
      "league": "MLB",
      "city": "Kansas City",
      "country": "USA",
      "lat": 39.0517,
      "lng": -94.4803,
      "capacity": 37903,
      "timezone": "America/Chicago"
    },
    {
      "id": "mlb-t-mobile",
      "name": "T-Mobile Park",
      "team": "Seattle Mariners",
      "league": "MLB",
      "city": "Seattle",
      "country": "USA",
      "lat": 47.5914,
      "lng": -122.3325,
      "capacity": 47929,
      "timezone": "America/Los_Angeles"
    },
    {
      "id": "mlb-angel",
      "name": "Angel Stadium",
      "team": "Los Angeles Angels",
      "league": "MLB",
      "city": "Anaheim",
      "country": "USA",
      "lat": 33.8003,
      "lng": -117.8827,
      "capacity": 45517,
      "timezone": "America/Los_Angeles"
    },
    {
      "id": "mlb-chase-field",
      "name": "Chase Field",
      "team": "Arizona Diamondbacks",
      "league": "MLB",
      "city": "Phoenix",
      "country": "USA",
      "lat": 33.4455,
      "lng": -112.0667,
      "capacity": 48405,
      "timezone": "America/Phoenix"
    },
    {
      "id": "mlb-coors",
      "name": "Coors Field",
      "team": "Colorado Rockies",
      "league": "MLB",
      "city": "Denver",
      "country": "USA",
      "lat": 39.7559,
      "lng": -104.9942,
      "capacity": 50398,
      "timezone": "America/Denver"
    },
    {
      "id": "mlb-tropicana",
      "name": "Tropicana Field",
      "team": "Tampa Bay Rays",
      "league": "MLB",
      "city": "St. Petersburg",
      "country": "USA",
      "lat": 27.7683,
      "lng": -82.6534,
      "capacity": 25000,
      "timezone": "America/New_York"
    },
    {
      "id": "mlb-loandepot",
      "name": "loanDepot park",
      "team": "Miami Marlins",
      "league": "MLB",
      "city": "Miami",
      "country": "USA",
      "lat": 25.7781,
      "lng": -80.2197,
      "capacity": 36742,
      "timezone": "America/New_York"
    },
    {
      "id": "nhl-madison",
      "name": "Madison Square Garden",
      "team": "New York Rangers",
      "league": "NHL",
      "city": "New York",
      "country": "USA",
      "lat": 40.7505,
      "lng": -73.9934,
      "capacity": 18006,
      "timezone": "America/New_York"
    },
    {
      "id": "nhl-td",
      "name": "TD Garden",
      "team": "Boston Bruins",
      "league": "NHL",
      "city": "Boston",
      "country": "USA",
      "lat": 42.3662,
      "lng": -71.0621,
      "capacity": 17850,
      "timezone": "America/New_York"
    },
    {
      "id": "nhl-united",
      "name": "United Center",
      "team": "Chicago Blackhawks",
      "league": "NHL",
      "city": "Chicago",
      "country": "USA",
      "lat": 41.8806,
      "lng": -87.6742,
      "capacity": 19717,
      "timezone": "America/Chicago"
    },
    {
      "id": "nhl-bell",
      "name": "Bell Centre",
      "team": "Montreal Canadiens",
      "league": "NHL",
      "city": "Montreal",
      "country": "Canada",
      "lat": 45.496,
      "lng": -73.5693,
      "capacity": 21302,
      "timezone": "America/Toronto"
    },
    {
      "id": "nhl-scotiabank",
      "name": "Scotiabank Arena",
      "team": "Toronto Maple Leafs",
      "league": "NHL",
      "city": "Toronto",
      "country": "Canada",
      "lat": 43.6435,
      "lng": -79.3791,
      "capacity": 18819,
      "timezone": "America/Toronto"
    },
    {
      "id": "nhl-rogers-place",
      "name": "Rogers Place",
      "team": "Edmonton Oilers",
      "league": "NHL",
      "city": "Edmonton",
      "country": "Canada",
      "lat": 53.5461,
      "lng": -113.4938,
      "capacity": 18347,
      "timezone": "America/Edmonton"
    },
    {
      "id": "nhl-rogers-arena",
      "name": "Rogers Arena",
      "team": "Vancouver Canucks",
      "league": "NHL",
      "city": "Vancouver",
      "country": "Canada",
      "lat": 49.2778,
      "lng": -123.1088,
      "capacity": 18910,
      "timezone": "America/Vancouver"
    },
    {
      "id": "nhl-canadian-tire",
      "name": "Canadian Tire Centre",
      "team": "Ottawa Senators",
      "league": "NHL",
      "city": "Ottawa",
      "country": "Canada",
      "lat": 45.2969,
      "lng": -75.9271,
      "capacity": 19153,
      "timezone": "America/Toronto"
    },
    {
      "id": "nhl-lenovo",
      "name": "Lenovo Center",
      "team": "Carolina Hurricanes",
      "league": "NHL",
      "city": "Raleigh",
      "country": "USA",
      "lat": 35.8033,
      "lng": -78.7228,
      "capacity": 18680,
      "timezone": "America/New_York"
    },
    {
      "id": "nhl-capital",
      "name": "Capital One Arena",
      "team": "Washington Capitals",
      "league": "NHL",
      "city": "Washington",
      "country": "USA",
      "lat": 38.8981,
      "lng": -77.0209,
      "capacity": 18573,
      "timezone": "America/New_York"
    },
    {
      "id": "nhl-wells",
      "name": "Wells Fargo Center",
      "team": "Philadelphia Flyers",
      "league": "NHL",
      "city": "Philadelphia",
      "country": "USA",
      "lat": 39.9012,
      "lng": -75.172,
      "capacity": 19543,
      "timezone": "America/New_York"
    },
    {
      "id": "nhl-ubs",
      "name": "UBS Arena",
      "team": "New York Islanders",
      "league": "NHL",
      "city": "Elmont",
      "country": "USA",
      "lat": 40.7226,
      "lng": -73.7234,
      "capacity": 17113,
      "timezone": "America/New_York"
    },
    {
      "id": "nhl-prudential",
      "name": "Prudential Center",
      "team": "New Jersey Devils",
      "league": "NHL",
      "city": "Newark",
      "country": "USA",
      "lat": 40.7336,
      "lng": -74.1711,
      "capacity": 16514,
      "timezone": "America/New_York"
    },
    {
      "id": "nhl-ppg",
      "name": "PPG Paints Arena",
      "team": "Pittsburgh Penguins",
      "league": "NHL",
      "city": "Pittsburgh",
      "country": "USA",
      "lat": 40.4395,
      "lng": -79.9892,
      "capacity": 18387,
      "timezone": "America/New_York"
    },
    {
      "id": "nhl-amalie",
      "name": "Amalie Arena",
      "team": "Tampa Bay Lightning",
      "league": "NHL",
      "city": "Tampa",
      "country": "USA",
      "lat": 27.9428,
      "lng": -82.4519,
      "capacity": 19092,
      "timezone": "America/New_York"
    },
    {
      "id": "nhl-amerant",
      "name": "Amerant Bank Arena",
      "team": "Florida Panthers",
      "league": "NHL",
      "city": "Sunrise",
      "country": "USA",
      "lat": 26.1583,
      "lng": -80.3256,
      "capacity": 19250,
      "timezone": "America/New_York"
    },
    {
      "id": "nhl-little-caesars",
      "name": "Little Caesars Arena",
      "team": "Detroit Red Wings",
      "league": "NHL",
      "city": "Detroit",
      "country": "USA",
      "lat": 42.3411,
      "lng": -83.0554,
      "capacity": 19515,
      "timezone": "America/Detroit"
    },
    {
      "id": "nhl-enterprise",
      "name": "Enterprise Center",
      "team": "St. Louis Blues",
      "league": "NHL",
      "city": "St. Louis",
      "country": "USA",
      "lat": 38.6267,
      "lng": -90.2025,
      "capacity": 18096,
      "timezone": "America/Chicago"
    },
    {
      "id": "nhl-xcel",
      "name": "Xcel Energy Center",
      "team": "Minnesota Wild",
      "league": "NHL",
      "city": "St. Paul",
      "country": "USA",
      "lat": 44.9447,
      "lng": -93.101,
      "capacity": 17954,
      "timezone": "America/Chicago"
    },
    {
      "id": "nhl-ball",
      "name": "Ball Arena",
      "team": "Colorado Avalanche",
      "league": "NHL",
      "city": "Denver",
      "country": "USA",
      "lat": 39.7487,
      "lng": -105.0077,
      "capacity": 18007,
      "timezone": "America/Denver"
    },
    {
      "id": "nhl-t-mobile",
      "name": "T-Mobile Arena",
      "team": "Vegas Golden Knights",
      "league": "NHL",
      "city": "Las Vegas",
      "country": "USA",
      "lat": 36.1028,
      "lng": -115.1784,
      "capacity": 17500,
      "timezone": "America/Los_Angeles"
    },
    {
      "id": "nhl-crypto",
      "name": "Crypto.com Arena",
      "team": "Los Angeles Kings",
      "league": "NHL",
      "city": "Los Angeles",
      "country": "USA",
      "lat": 34.043,
      "lng": -118.2673,
      "capacity": 18230,
      "timezone": "America/Los_Angeles"
    },
    {
      "id": "nhl-honda",
      "name": "Honda Center",
      "team": "Anaheim Ducks",
      "league": "NHL",
      "city": "Anaheim",
      "country": "USA",
      "lat": 33.8078,
      "lng": -117.8769,
      "capacity": 17174,
      "timezone": "America/Los_Angeles"
    },
    {
      "id": "nhl-sap",
      "name": "SAP Center",
      "team": "San Jose Sharks",
      "league": "NHL",
      "city": "San Jose",
      "country": "USA",
      "lat": 37.3329,
      "lng": -121.9014,
      "capacity": 17562,
      "timezone": "America/Los_Angeles"
    },
    {
      "id": "nhl-climate-pledge",
      "name": "Climate Pledge Arena",
      "team": "Seattle Kraken",
      "league": "NHL",
      "city": "Seattle",
      "country": "USA",
      "lat": 47.6221,
      "lng": -122.354,
      "capacity": 17100,
      "timezone": "America/Los_Angeles"
    },
    {
      "id": "nhl-canada-life",
      "name": "Canada Life Centre",
      "team": "Winnipeg Jets",
      "league": "NHL",
      "city": "Winnipeg",
      "country": "Canada",
      "lat": 49.8928,
      "lng": -97.1437,
      "capacity": 15321,
      "timezone": "America/Winnipeg"
    },
    {
      "id": "nhl-saddledome",
      "name": "Scotiabank Saddledome",
      "team": "Calgary Flames",
      "league": "NHL",
      "city": "Calgary",
      "country": "Canada",
      "lat": 51.0375,
      "lng": -114.0519,
      "capacity": 19289,
      "timezone": "America/Edmonton"
    },
    {
      "id": "nhl-bridgestone",
      "name": "Bridgestone Arena",
      "team": "Nashville Predators",
      "league": "NHL",
      "city": "Nashville",
      "country": "USA",
      "lat": 36.1592,
      "lng": -86.7785,
      "capacity": 17159,
      "timezone": "America/Chicago"
    },
    {
      "id": "nhl-nationwide",
      "name": "Nationwide Arena",
      "team": "Columbus Blue Jackets",
      "league": "NHL",
      "city": "Columbus",
      "country": "USA",
      "lat": 39.9693,
      "lng": -83.0061,
      "capacity": 19500,
      "timezone": "America/New_York"
    },
    {
      "id": "nhl-delta",
      "name": "Delta Center",
      "team": "Utah Hockey Club",
      "league": "NHL",
      "city": "Salt Lake City",
      "country": "USA",
      "lat": 40.7683,
      "lng": -111.9011,
      "capacity": 18306,
      "timezone": "America/Denver"
    },
    {
      "id": "ncaaf-michigan",
      "name": "Michigan Stadium",
      "team": "Michigan Wolverines",
      "league": "NCAAF",
      "city": "Ann Arbor",
      "country": "USA",
      "lat": 42.2659,
      "lng": -83.7487,
      "capacity": 107601,
      "timezone": "America/Detroit"
    },
    {
      "id": "ncaaf-ohio-state",
      "name": "Ohio Stadium",
      "team": "Ohio State Buckeyes",
      "league": "NCAAF",
      "city": "Columbus",
      "country": "USA",
      "lat": 40.0016,
      "lng": -83.0197,
      "capacity": 102780,
      "timezone": "America/New_York"
    },
    {
      "id": "ncaaf-alabama",
      "name": "Bryant-Denny Stadium",
      "team": "Alabama Crimson Tide",
      "league": "NCAAF",
      "city": "Tuscaloosa",
      "country": "USA",
      "lat": 33.206,
      "lng": -87.5503,
      "capacity": 101821,
      "timezone": "America/Chicago"
    },
    {
      "id": "ncaaf-texas",
      "name": "Darrell K Royal Stadium",
      "team": "Texas Longhorns",
      "league": "NCAAF",
      "city": "Austin",
      "country": "USA",
      "lat": 30.2837,
      "lng": -97.7326,
      "capacity": 100119,
      "timezone": "America/Chicago"
    },
    {
      "id": "ncaaf-penn-state",
      "name": "Beaver Stadium",
      "team": "Penn State Nittany Lions",
      "league": "NCAAF",
      "city": "University Park",
      "country": "USA",
      "lat": 40.8121,
      "lng": -77.8563,
      "capacity": 106572,
      "timezone": "America/New_York"
    },
    {
      "id": "ncaaf-lsu",
      "name": "Tiger Stadium",
      "team": "LSU Tigers",
      "league": "NCAAF",
      "city": "Baton Rouge",
      "country": "USA",
      "lat": 30.4122,
      "lng": -91.1838,
      "capacity": 102321,
      "timezone": "America/Chicago"
    },
    {
      "id": "ncaaf-georgia",
      "name": "Sanford Stadium",
      "team": "Georgia Bulldogs",
      "league": "NCAAF",
      "city": "Athens",
      "country": "USA",
      "lat": 33.9497,
      "lng": -83.3734,
      "capacity": 92746,
      "timezone": "America/New_York"
    },
    {
      "id": "ncaaf-clemson",
      "name": "Memorial Stadium",
      "team": "Clemson Tigers",
      "league": "NCAAF",
      "city": "Clemson",
      "country": "USA",
      "lat": 34.6784,
      "lng": -82.8438,
      "capacity": 81500,
      "timezone": "America/New_York"
    },
    {
      "id": "ncaaf-notre-dame",
      "name": "Notre Dame Stadium",
      "team": "Notre Dame Fighting Irish",
      "league": "NCAAF",
      "city": "Notre Dame",
      "country": "USA",
      "lat": 41.6983,
      "lng": -86.2339,
      "capacity": 80795,
      "timezone": "America/Indiana/Indianapolis"
    },
    {
      "id": "ncaaf-oklahoma",
      "name": "Gaylord Family Oklahoma Memorial Stadium",
      "team": "Oklahoma Sooners",
      "league": "NCAAF",
      "city": "Norman",
      "country": "USA",
      "lat": 35.2058,
      "lng": -97.4427,
      "capacity": 80126,
      "timezone": "America/Chicago"
    },
    {
      "id": "ncaaf-usc",
      "name": "Los Angeles Memorial Coliseum",
      "team": "USC Trojans",
      "league": "NCAAF",
      "city": "Los Angeles",
      "country": "USA",
      "lat": 34.0141,
      "lng": -118.2879,
      "capacity": 77500,
      "timezone": "America/Los_Angeles"
    },
    {
      "id": "ncaaf-florida",
      "name": "Ben Hill Griffin Stadium",
      "team": "Florida Gators",
      "league": "NCAAF",
      "city": "Gainesville",
      "country": "USA",
      "lat": 29.6499,
      "lng": -82.3486,
      "capacity": 88548,
      "timezone": "America/New_York"
    },
    {
      "id": "ncaaf-auburn",
      "name": "Jordan-Hare Stadium",
      "team": "Auburn Tigers",
      "league": "NCAAF",
      "city": "Auburn",
      "country": "USA",
      "lat": 32.6026,
      "lng": -85.4893,
      "capacity": 87451,
      "timezone": "America/Chicago"
    },
    {
      "id": "ncaaf-oregon",
      "name": "Autzen Stadium",
      "team": "Oregon Ducks",
      "league": "NCAAF",
      "city": "Eugene",
      "country": "USA",
      "lat": 44.0561,
      "lng": -123.0686,
      "capacity": 54000,
      "timezone": "America/Los_Angeles"
    },
    {
      "id": "ncaaf-miami",
      "name": "Hard Rock Stadium",
      "team": "Miami Hurricanes",
      "league": "NCAAF",
      "city": "Miami Gardens",
      "country": "USA",
      "lat": 25.958,
      "lng": -80.2389,
      "capacity": 65326,
      "timezone": "America/New_York"
    },
    {
      "id": "ncaab-duke",
      "name": "Cameron Indoor Stadium",
      "team": "Duke Blue Devils",
      "league": "NCAAB",
      "city": "Durham",
      "country": "USA",
      "lat": 36.0007,
      "lng": -78.9429,
      "capacity": 9314,
      "timezone": "America/New_York"
    },
    {
      "id": "ncaab-kentucky",
      "name": "Rupp Arena",
      "team": "Kentucky Wildcats",
      "league": "NCAAB",
      "city": "Lexington",
      "country": "USA",
      "lat": 38.0486,
      "lng": -84.5001,
      "capacity": 20545,
      "timezone": "America/New_York"
    },
    {
      "id": "ncaab-kansas",
      "name": "Allen Fieldhouse",
      "team": "Kansas Jayhawks",
      "league": "NCAAB",
      "city": "Lawrence",
      "country": "USA",
      "lat": 38.9543,
      "lng": -95.2527,
      "capacity": 16300,
      "timezone": "America/Chicago"
    },
    {
      "id": "ncaab-unc",
      "name": "Dean E. Smith Center",
      "team": "North Carolina Tar Heels",
      "league": "NCAAB",
      "city": "Chapel Hill",
      "country": "USA",
      "lat": 35.9049,
      "lng": -79.0469,
      "capacity": 21902,
      "timezone": "America/New_York"
    },
    {
      "id": "ncaab-ucla",
      "name": "Pauley Pavilion",
      "team": "UCLA Bruins",
      "league": "NCAAB",
      "city": "Los Angeles",
      "country": "USA",
      "lat": 34.0714,
      "lng": -118.4462,
      "capacity": 13800,
      "timezone": "America/Los_Angeles"
    },
    {
      "id": "ncaab-indiana",
      "name": "Assembly Hall",
      "team": "Indiana Hoosiers",
      "league": "NCAAB",
      "city": "Bloomington",
      "country": "USA",
      "lat": 39.1716,
      "lng": -86.5163,
      "capacity": 17222,
      "timezone": "America/Indiana/Indianapolis"
    },
    {
      "id": "ncaab-louisville",
      "name": "KFC Yum! Center",
      "team": "Louisville Cardinals",
      "league": "NCAAB",
      "city": "Louisville",
      "country": "USA",
      "lat": 38.2547,
      "lng": -85.7569,
      "capacity": 22090,
      "timezone": "America/New_York"
    },
    {
      "id": "ncaab-gonzaga",
      "name": "McCarthey Athletic Center",
      "team": "Gonzaga Bulldogs",
      "league": "NCAAB",
      "city": "Spokane",
      "country": "USA",
      "lat": 47.6659,
      "lng": -117.4027,
      "capacity": 6000,
      "timezone": "America/Los_Angeles"
    },
    {
      "id": "ncaab-villanova",
      "name": "Finneran Pavilion",
      "team": "Villanova Wildcats",
      "league": "NCAAB",
      "city": "Villanova",
      "country": "USA",
      "lat": 40.0362,
      "lng": -75.3435,
      "capacity": 6500,
      "timezone": "America/New_York"
    },
    {
      "id": "ncaab-michigan-state",
      "name": "Breslin Student Events Center",
      "team": "Michigan State Spartans",
      "league": "NCAAB",
      "city": "East Lansing",
      "country": "USA",
      "lat": 42.7296,
      "lng": -84.4871,
      "capacity": 14797,
      "timezone": "America/Detroit"
    },
    {
      "id": "ncaab-connecticut",
      "name": "Gampel Pavilion",
      "team": "Connecticut Huskies",
      "league": "NCAAB",
      "city": "Storrs",
      "country": "USA",
      "lat": 41.8083,
      "lng": -72.2527,
      "capacity": 10167,
      "timezone": "America/New_York"
    },
    {
      "id": "ncaab-arizona",
      "name": "McKale Center",
      "team": "Arizona Wildcats",
      "league": "NCAAB",
      "city": "Tucson",
      "country": "USA",
      "lat": 32.2286,
      "lng": -110.9514,
      "capacity": 14545,
      "timezone": "America/Phoenix"
    },
    {
      "id": "ncaab-florida",
      "name": "Stephen C. O'Connell Center",
      "team": "Florida Gators",
      "league": "NCAAB",
      "city": "Gainesville",
      "country": "USA",
      "lat": 29.6466,
      "lng": -82.3491,
      "capacity": 12000,
      "timezone": "America/New_York"
    },
    {
      "id": "mma-t-mobile",
      "name": "T-Mobile Arena",
      "team": "UFC Las Vegas",
      "league": "MMA",
      "city": "Las Vegas",
      "country": "USA",
      "lat": 36.1028,
      "lng": -115.1784,
      "capacity": 20000,
      "timezone": "America/Los_Angeles"
    },
    {
      "id": "mma-ufc-apex",
      "name": "UFC Apex",
      "team": "UFC Apex",
      "league": "MMA",
      "city": "Las Vegas",
      "country": "USA",
      "lat": 36.1981,
      "lng": -115.154,
      "capacity": 1800,
      "timezone": "America/Los_Angeles"
    },
    {
      "id": "mma-td-garden",
      "name": "TD Garden",
      "team": "UFC Boston",
      "league": "MMA",
      "city": "Boston",
      "country": "USA",
      "lat": 42.3662,
      "lng": -71.0621,
      "capacity": 19156,
      "timezone": "America/New_York"
    },
    {
      "id": "mma-msg",
      "name": "Madison Square Garden",
      "team": "UFC New York",
      "league": "MMA",
      "city": "New York",
      "country": "USA",
      "lat": 40.7505,
      "lng": -73.9934,
      "capacity": 20789,
      "timezone": "America/New_York"
    },
    {
      "id": "mma-united-center",
      "name": "United Center",
      "team": "UFC Chicago",
      "league": "MMA",
      "city": "Chicago",
      "country": "USA",
      "lat": 41.8806,
      "lng": -87.6742,
      "capacity": 20500,
      "timezone": "America/Chicago"
    },
    {
      "id": "mma-rogers-place",
      "name": "Rogers Place",
      "team": "UFC Edmonton",
      "league": "MMA",
      "city": "Edmonton",
      "country": "Canada",
      "lat": 53.5461,
      "lng": -113.4938,
      "capacity": 18347,
      "timezone": "America/Edmonton"
    },
    {
      "id": "mma-o2-arena",
      "name": "The O2 Arena",
      "team": "UFC London",
      "league": "MMA",
      "city": "London",
      "country": "UK",
      "lat": 51.503,
      "lng": 0.0032,
      "capacity": 20000,
      "timezone": "Europe/London"
    },
    {
      "id": "mma-accor",
      "name": "Accor Arena",
      "team": "UFC Paris",
      "league": "MMA",
      "city": "Paris",
      "country": "France",
      "lat": 48.8383,
      "lng": 2.3785,
      "capacity": 20300,
      "timezone": "Europe/Paris"
    },
    {
      "id": "f1-monaco",
      "name": "Circuit de Monaco",
      "team": "Monaco Grand Prix",
      "league": "F1",
      "city": "Monte Carlo",
      "country": "Monaco",
      "lat": 43.7347,
      "lng": 7.4206,
      "capacity": 37000,
      "timezone": "Europe/Monaco"
    },
    {
      "id": "f1-silverstone",
      "name": "Silverstone Circuit",
      "team": "British Grand Prix",
      "league": "F1",
      "city": "Silverstone",
      "country": "UK",
      "lat": 52.0786,
      "lng": -1.0169,
      "capacity": 150000,
      "timezone": "Europe/London"
    },
    {
      "id": "f1-monza",
      "name": "Autodromo Nazionale Monza",
      "team": "Italian Grand Prix",
      "league": "F1",
      "city": "Monza",
      "country": "Italy",
      "lat": 45.6156,
      "lng": 9.2811,
      "capacity": 100000,
      "timezone": "Europe/Rome"
    },
    {
      "id": "f1-spa",
      "name": "Circuit de Spa-Francorchamps",
      "team": "Belgian Grand Prix",
      "league": "F1",
      "city": "Stavelot",
      "country": "Belgium",
      "lat": 50.4372,
      "lng": 5.9714,
      "capacity": 70000,
      "timezone": "Europe/Brussels"
    },
    {
      "id": "f1-suzuka",
      "name": "Suzuka International Racing Course",
      "team": "Japanese Grand Prix",
      "league": "F1",
      "city": "Suzuka",
      "country": "Japan",
      "lat": 34.8431,
      "lng": 136.5408,
      "capacity": 155000,
      "timezone": "Asia/Tokyo"
    },
    {
      "id": "f1-austin",
      "name": "Circuit of the Americas",
      "team": "United States Grand Prix",
      "league": "F1",
      "city": "Austin",
      "country": "USA",
      "lat": 30.1328,
      "lng": -97.6411,
      "capacity": 120000,
      "timezone": "America/Chicago"
    },
    {
      "id": "f1-abu-dhabi",
      "name": "Yas Marina Circuit",
      "team": "Abu Dhabi Grand Prix",
      "league": "F1",
      "city": "Abu Dhabi",
      "country": "UAE",
      "lat": 24.4672,
      "lng": 54.6031,
      "capacity": 55000,
      "timezone": "Asia/Dubai"
    },
    {
      "id": "f1-singapore",
      "name": "Marina Bay Street Circuit",
      "team": "Singapore Grand Prix",
      "league": "F1",
      "city": "Singapore",
      "country": "Singapore",
      "lat": 1.2914,
      "lng": 103.864,
      "capacity": 90000,
      "timezone": "Asia/Singapore"
    },
    {
      "id": "f1-interlagos",
      "name": "Autodromo Jose Carlos Pace",
      "team": "Brazilian Grand Prix",
      "league": "F1",
      "city": "Sao Paulo",
      "country": "Brazil",
      "lat": -23.7036,
      "lng": -46.6997,
      "capacity": 60000,
      "timezone": "America/Sao_Paulo"
    },
    {
      "id": "f1-melbourne",
      "name": "Albert Park Circuit",
      "team": "Australian Grand Prix",
      "league": "F1",
      "city": "Melbourne",
      "country": "Australia",
      "lat": -37.8497,
      "lng": 144.968,
      "capacity": 120000,
      "timezone": "Australia/Melbourne"
    },
    {
      "id": "f1-barcelona",
      "name": "Circuit de Barcelona-Catalunya",
      "team": "Spanish Grand Prix",
      "league": "F1",
      "city": "Barcelona",
      "country": "Spain",
      "lat": 41.57,
      "lng": 2.2611,
      "capacity": 140000,
      "timezone": "Europe/Madrid"
    },
    {
      "id": "f1-bahrain",
      "name": "Bahrain International Circuit",
      "team": "Bahrain Grand Prix",
      "league": "F1",
      "city": "Sakhir",
      "country": "Bahrain",
      "lat": 26.0325,
      "lng": 50.5106,
      "capacity": 70000,
      "timezone": "Asia/Bahrain"
    },
    {
      "id": "f1-miami",
      "name": "Miami International Autodrome",
      "team": "Miami Grand Prix",
      "league": "F1",
      "city": "Miami Gardens",
      "country": "USA",
      "lat": 25.9579,
      "lng": -80.2389,
      "capacity": 80000,
      "timezone": "America/New_York"
    },
    {
      "id": "f1-las-vegas",
      "name": "Las Vegas Strip Circuit",
      "team": "Las Vegas Grand Prix",
      "league": "F1",
      "city": "Las Vegas",
      "country": "USA",
      "lat": 36.1147,
      "lng": -115.1728,
      "capacity": 105000,
      "timezone": "America/Los_Angeles"
    },
    {
      "id": "f1-canada",
      "name": "Circuit Gilles Villeneuve",
      "team": "Canadian Grand Prix",
      "league": "F1",
      "city": "Montreal",
      "country": "Canada",
      "lat": 45.5,
      "lng": -73.5228,
      "capacity": 55000,
      "timezone": "America/Toronto"
    },
    {
      "id": "ncaaf-michigan",
      "name": "Michigan Stadium",
      "team": "Michigan Wolverines",
      "league": "NCAAF",
      "city": "Ann Arbor",
      "country": "USA",
      "lat": 42.2659,
      "lng": -83.7487,
      "capacity": 107601,
      "timezone": "America/Detroit"
    },
    {
      "id": "ncaaf-ohio-state",
      "name": "Ohio Stadium",
      "team": "Ohio State Buckeyes",
      "league": "NCAAF",
      "city": "Columbus",
      "country": "USA",
      "lat": 40.0016,
      "lng": -83.0197,
      "capacity": 102780,
      "timezone": "America/New_York"
    },
    {
      "id": "ncaaf-alabama",
      "name": "Bryant-Denny Stadium",
      "team": "Alabama Crimson Tide",
      "league": "NCAAF",
      "city": "Tuscaloosa",
      "country": "USA",
      "lat": 33.206,
      "lng": -87.5503,
      "capacity": 101821,
      "timezone": "America/Chicago"
    },
    {
      "id": "ncaaf-texas",
      "name": "Darrell K Royal Stadium",
      "team": "Texas Longhorns",
      "league": "NCAAF",
      "city": "Austin",
      "country": "USA",
      "lat": 30.2837,
      "lng": -97.7326,
      "capacity": 100119,
      "timezone": "America/Chicago"
    },
    {
      "id": "ncaaf-penn-state",
      "name": "Beaver Stadium",
      "team": "Penn State Nittany Lions",
      "league": "NCAAF",
      "city": "University Park",
      "country": "USA",
      "lat": 40.8121,
      "lng": -77.8563,
      "capacity": 106572,
      "timezone": "America/New_York"
    },
    {
      "id": "ncaaf-lsu",
      "name": "Tiger Stadium",
      "team": "LSU Tigers",
      "league": "NCAAF",
      "city": "Baton Rouge",
      "country": "USA",
      "lat": 30.4122,
      "lng": -91.1838,
      "capacity": 102321,
      "timezone": "America/Chicago"
    },
    {
      "id": "ncaaf-georgia",
      "name": "Sanford Stadium",
      "team": "Georgia Bulldogs",
      "league": "NCAAF",
      "city": "Athens",
      "country": "USA",
      "lat": 33.9497,
      "lng": -83.3734,
      "capacity": 92746,
      "timezone": "America/New_York"
    },
    {
      "id": "ncaaf-clemson",
      "name": "Memorial Stadium",
      "team": "Clemson Tigers",
      "league": "NCAAF",
      "city": "Clemson",
      "country": "USA",
      "lat": 34.6784,
      "lng": -82.8438,
      "capacity": 81500,
      "timezone": "America/New_York"
    },
    {
      "id": "ncaaf-notre-dame",
      "name": "Notre Dame Stadium",
      "team": "Notre Dame Fighting Irish",
      "league": "NCAAF",
      "city": "Notre Dame",
      "country": "USA",
      "lat": 41.6983,
      "lng": -86.2339,
      "capacity": 80795,
      "timezone": "America/Indiana/Indianapolis"
    },
    {
      "id": "ncaaf-oklahoma",
      "name": "Gaylord Family Oklahoma Memorial Stadium",
      "team": "Oklahoma Sooners",
      "league": "NCAAF",
      "city": "Norman",
      "country": "USA",
      "lat": 35.2058,
      "lng": -97.4427,
      "capacity": 80126,
      "timezone": "America/Chicago"
    },
    {
      "id": "ncaaf-usc",
      "name": "Los Angeles Memorial Coliseum",
      "team": "USC Trojans",
      "league": "NCAAF",
      "city": "Los Angeles",
      "country": "USA",
      "lat": 34.0141,
      "lng": -118.2879,
      "capacity": 77500,
      "timezone": "America/Los_Angeles"
    },
    {
      "id": "ncaaf-florida",
      "name": "Ben Hill Griffin Stadium",
      "team": "Florida Gators",
      "league": "NCAAF",
      "city": "Gainesville",
      "country": "USA",
      "lat": 29.6499,
      "lng": -82.3486,
      "capacity": 88548,
      "timezone": "America/New_York"
    },
    {
      "id": "ncaaf-auburn",
      "name": "Jordan-Hare Stadium",
      "team": "Auburn Tigers",
      "league": "NCAAF",
      "city": "Auburn",
      "country": "USA",
      "lat": 32.6026,
      "lng": -85.4893,
      "capacity": 87451,
      "timezone": "America/Chicago"
    },
    {
      "id": "ncaaf-oregon",
      "name": "Autzen Stadium",
      "team": "Oregon Ducks",
      "league": "NCAAF",
      "city": "Eugene",
      "country": "USA",
      "lat": 44.0561,
      "lng": -123.0686,
      "capacity": 54000,
      "timezone": "America/Los_Angeles"
    },
    {
      "id": "ncaaf-miami",
      "name": "Hard Rock Stadium",
      "team": "Miami Hurricanes",
      "league": "NCAAF",
      "city": "Miami Gardens",
      "country": "USA",
      "lat": 25.958,
      "lng": -80.2389,
      "capacity": 65326,
      "timezone": "America/New_York"
    },
    {
      "id": "ncaab-duke",
      "name": "Cameron Indoor Stadium",
      "team": "Duke Blue Devils",
      "league": "NCAAB",
      "city": "Durham",
      "country": "USA",
      "lat": 36.0007,
      "lng": -78.9429,
      "capacity": 9314,
      "timezone": "America/New_York"
    },
    {
      "id": "ncaab-kentucky",
      "name": "Rupp Arena",
      "team": "Kentucky Wildcats",
      "league": "NCAAB",
      "city": "Lexington",
      "country": "USA",
      "lat": 38.0486,
      "lng": -84.5001,
      "capacity": 20545,
      "timezone": "America/New_York"
    },
    {
      "id": "ncaab-kansas",
      "name": "Allen Fieldhouse",
      "team": "Kansas Jayhawks",
      "league": "NCAAB",
      "city": "Lawrence",
      "country": "USA",
      "lat": 38.9543,
      "lng": -95.2527,
      "capacity": 16300,
      "timezone": "America/Chicago"
    },
    {
      "id": "ncaab-unc",
      "name": "Dean E. Smith Center",
      "team": "North Carolina Tar Heels",
      "league": "NCAAB",
      "city": "Chapel Hill",
      "country": "USA",
      "lat": 35.9049,
      "lng": -79.0469,
      "capacity": 21902,
      "timezone": "America/New_York"
    },
    {
      "id": "ncaab-ucla",
      "name": "Pauley Pavilion",
      "team": "UCLA Bruins",
      "league": "NCAAB",
      "city": "Los Angeles",
      "country": "USA",
      "lat": 34.0714,
      "lng": -118.4462,
      "capacity": 13800,
      "timezone": "America/Los_Angeles"
    },
    {
      "id": "ncaab-indiana",
      "name": "Assembly Hall",
      "team": "Indiana Hoosiers",
      "league": "NCAAB",
      "city": "Bloomington",
      "country": "USA",
      "lat": 39.1716,
      "lng": -86.5163,
      "capacity": 17222,
      "timezone": "America/Indiana/Indianapolis"
    },
    {
      "id": "ncaab-louisville",
      "name": "KFC Yum! Center",
      "team": "Louisville Cardinals",
      "league": "NCAAB",
      "city": "Louisville",
      "country": "USA",
      "lat": 38.2547,
      "lng": -85.7569,
      "capacity": 22090,
      "timezone": "America/New_York"
    },
    {
      "id": "ncaab-gonzaga",
      "name": "McCarthey Athletic Center",
      "team": "Gonzaga Bulldogs",
      "league": "NCAAB",
      "city": "Spokane",
      "country": "USA",
      "lat": 47.6659,
      "lng": -117.4027,
      "capacity": 6000,
      "timezone": "America/Los_Angeles"
    },
    {
      "id": "ncaab-villanova",
      "name": "Finneran Pavilion",
      "team": "Villanova Wildcats",
      "league": "NCAAB",
      "city": "Villanova",
      "country": "USA",
      "lat": 40.0362,
      "lng": -75.3435,
      "capacity": 6500,
      "timezone": "America/New_York"
    },
    {
      "id": "ncaab-michigan-state",
      "name": "Breslin Student Events Center",
      "team": "Michigan State Spartans",
      "league": "NCAAB",
      "city": "East Lansing",
      "country": "USA",
      "lat": 42.7296,
      "lng": -84.4871,
      "capacity": 14797,
      "timezone": "America/Detroit"
    },
    {
      "id": "ncaab-connecticut",
      "name": "Gampel Pavilion",
      "team": "Connecticut Huskies",
      "league": "NCAAB",
      "city": "Storrs",
      "country": "USA",
      "lat": 41.8083,
      "lng": -72.2527,
      "capacity": 10167,
      "timezone": "America/New_York"
    },
    {
      "id": "ncaab-arizona",
      "name": "McKale Center",
      "team": "Arizona Wildcats",
      "league": "NCAAB",
      "city": "Tucson",
      "country": "USA",
      "lat": 32.2286,
      "lng": -110.9514,
      "capacity": 14545,
      "timezone": "America/Phoenix"
    },
    {
      "id": "ncaab-florida",
      "name": "Stephen C. O'Connell Center",
      "team": "Florida Gators",
      "league": "NCAAB",
      "city": "Gainesville",
      "country": "USA",
      "lat": 29.6466,
      "lng": -82.3491,
      "capacity": 12000,
      "timezone": "America/New_York"
    },
    {
      "id": "mma-t-mobile",
      "name": "T-Mobile Arena",
      "team": "UFC Las Vegas",
      "league": "MMA",
      "city": "Las Vegas",
      "country": "USA",
      "lat": 36.1028,
      "lng": -115.1784,
      "capacity": 20000,
      "timezone": "America/Los_Angeles"
    },
    {
      "id": "mma-ufc-apex",
      "name": "UFC Apex",
      "team": "UFC Apex",
      "league": "MMA",
      "city": "Las Vegas",
      "country": "USA",
      "lat": 36.1981,
      "lng": -115.154,
      "capacity": 1800,
      "timezone": "America/Los_Angeles"
    },
    {
      "id": "mma-td-garden",
      "name": "TD Garden",
      "team": "UFC Boston",
      "league": "MMA",
      "city": "Boston",
      "country": "USA",
      "lat": 42.3662,
      "lng": -71.0621,
      "capacity": 19156,
      "timezone": "America/New_York"
    },
    {
      "id": "mma-msg",
      "name": "Madison Square Garden",
      "team": "UFC New York",
      "league": "MMA",
      "city": "New York",
      "country": "USA",
      "lat": 40.7505,
      "lng": -73.9934,
      "capacity": 20789,
      "timezone": "America/New_York"
    },
    {
      "id": "mma-united-center",
      "name": "United Center",
      "team": "UFC Chicago",
      "league": "MMA",
      "city": "Chicago",
      "country": "USA",
      "lat": 41.8806,
      "lng": -87.6742,
      "capacity": 20500,
      "timezone": "America/Chicago"
    },
    {
      "id": "mma-rogers-place",
      "name": "Rogers Place",
      "team": "UFC Edmonton",
      "league": "MMA",
      "city": "Edmonton",
      "country": "Canada",
      "lat": 53.5461,
      "lng": -113.4938,
      "capacity": 18347,
      "timezone": "America/Edmonton"
    },
    {
      "id": "mma-o2-arena",
      "name": "The O2 Arena",
      "team": "UFC London",
      "league": "MMA",
      "city": "London",
      "country": "UK",
      "lat": 51.503,
      "lng": 0.0032,
      "capacity": 20000,
      "timezone": "Europe/London"
    },
    {
      "id": "mma-accor",
      "name": "Accor Arena",
      "team": "UFC Paris",
      "league": "MMA",
      "city": "Paris",
      "country": "France",
      "lat": 48.8383,
      "lng": 2.3785,
      "capacity": 20300,
      "timezone": "Europe/Paris"
    },
    {
      "id": "f1-monaco",
      "name": "Circuit de Monaco",
      "team": "Monaco Grand Prix",
      "league": "F1",
      "city": "Monte Carlo",
      "country": "Monaco",
      "lat": 43.7347,
      "lng": 7.4206,
      "capacity": 37000,
      "timezone": "Europe/Monaco"
    },
    {
      "id": "f1-silverstone",
      "name": "Silverstone Circuit",
      "team": "British Grand Prix",
      "league": "F1",
      "city": "Silverstone",
      "country": "UK",
      "lat": 52.0786,
      "lng": -1.0169,
      "capacity": 150000,
      "timezone": "Europe/London"
    },
    {
      "id": "f1-monza",
      "name": "Autodromo Nazionale Monza",
      "team": "Italian Grand Prix",
      "league": "F1",
      "city": "Monza",
      "country": "Italy",
      "lat": 45.6156,
      "lng": 9.2811,
      "capacity": 100000,
      "timezone": "Europe/Rome"
    },
    {
      "id": "f1-spa",
      "name": "Circuit de Spa-Francorchamps",
      "team": "Belgian Grand Prix",
      "league": "F1",
      "city": "Stavelot",
      "country": "Belgium",
      "lat": 50.4372,
      "lng": 5.9714,
      "capacity": 70000,
      "timezone": "Europe/Brussels"
    },
    {
      "id": "f1-suzuka",
      "name": "Suzuka International Racing Course",
      "team": "Japanese Grand Prix",
      "league": "F1",
      "city": "Suzuka",
      "country": "Japan",
      "lat": 34.8431,
      "lng": 136.5408,
      "capacity": 155000,
      "timezone": "Asia/Tokyo"
    },
    {
      "id": "f1-austin",
      "name": "Circuit of the Americas",
      "team": "United States Grand Prix",
      "league": "F1",
      "city": "Austin",
      "country": "USA",
      "lat": 30.1328,
      "lng": -97.6411,
      "capacity": 120000,
      "timezone": "America/Chicago"
    },
    {
      "id": "f1-abu-dhabi",
      "name": "Yas Marina Circuit",
      "team": "Abu Dhabi Grand Prix",
      "league": "F1",
      "city": "Abu Dhabi",
      "country": "UAE",
      "lat": 24.4672,
      "lng": 54.6031,
      "capacity": 55000,
      "timezone": "Asia/Dubai"
    },
    {
      "id": "f1-singapore",
      "name": "Marina Bay Street Circuit",
      "team": "Singapore Grand Prix",
      "league": "F1",
      "city": "Singapore",
      "country": "Singapore",
      "lat": 1.2914,
      "lng": 103.864,
      "capacity": 90000,
      "timezone": "Asia/Singapore"
    },
    {
      "id": "f1-interlagos",
      "name": "Autodromo Jose Carlos Pace",
      "team": "Brazilian Grand Prix",
      "league": "F1",
      "city": "Sao Paulo",
      "country": "Brazil",
      "lat": -23.7036,
      "lng": -46.6997,
      "capacity": 60000,
      "timezone": "America/Sao_Paulo"
    },
    {
      "id": "f1-melbourne",
      "name": "Albert Park Circuit",
      "team": "Australian Grand Prix",
      "league": "F1",
      "city": "Melbourne",
      "country": "Australia",
      "lat": -37.8497,
      "lng": 144.968,
      "capacity": 120000,
      "timezone": "Australia/Melbourne"
    },
    {
      "id": "f1-barcelona",
      "name": "Circuit de Barcelona-Catalunya",
      "team": "Spanish Grand Prix",
      "league": "F1",
      "city": "Barcelona",
      "country": "Spain",
      "lat": 41.57,
      "lng": 2.2611,
      "capacity": 140000,
      "timezone": "Europe/Madrid"
    },
    {
      "id": "f1-bahrain",
      "name": "Bahrain International Circuit",
      "team": "Bahrain Grand Prix",
      "league": "F1",
      "city": "Sakhir",
      "country": "Bahrain",
      "lat": 26.0325,
      "lng": 50.5106,
      "capacity": 70000,
      "timezone": "Asia/Bahrain"
    },
    {
      "id": "f1-miami",
      "name": "Miami International Autodrome",
      "team": "Miami Grand Prix",
      "league": "F1",
      "city": "Miami Gardens",
      "country": "USA",
      "lat": 25.9579,
      "lng": -80.2389,
      "capacity": 80000,
      "timezone": "America/New_York"
    },
    {
      "id": "f1-las-vegas",
      "name": "Las Vegas Strip Circuit",
      "team": "Las Vegas Grand Prix",
      "league": "F1",
      "city": "Las Vegas",
      "country": "USA",
      "lat": 36.1147,
      "lng": -115.1728,
      "capacity": 105000,
      "timezone": "America/Los_Angeles"
    },
    {
      "id": "f1-canada",
      "name": "Circuit Gilles Villeneuve",
      "team": "Canadian Grand Prix",
      "league": "F1",
      "city": "Montreal",
      "country": "Canada",
      "lat": 45.5,
      "lng": -73.5228,
      "capacity": 55000,
      "timezone": "America/Toronto"
    },
    {
      "id": "ncaab-ud-arena",
      "name": "UD Arena",
      "team": "NCAA Tournament - Dayton",
      "league": "NCAAB",
      "city": "Dayton",
      "country": "USA",
      "lat": 39.7586,
      "lng": -84.1916,
      "capacity": 13407,
      "timezone": "America/New_York"
    },
    {
      "id": "ncaab-intrust",
      "name": "INTRUST Bank Arena",
      "team": "NCAA Tournament - Wichita",
      "league": "NCAAB",
      "city": "Wichita",
      "country": "USA",
      "lat": 37.6895,
      "lng": -97.3368,
      "capacity": 15004,
      "timezone": "America/Chicago"
    },
    {
      "id": "ncaab-gainbridge",
      "name": "Gainbridge Fieldhouse",
      "team": "NCAA Tournament - Indianapolis",
      "league": "NCAAB",
      "city": "Indianapolis",
      "country": "USA",
      "lat": 39.7639,
      "lng": -86.1555,
      "capacity": 17923,
      "timezone": "America/Indiana/Indianapolis"
    },
    {
      "id": "ncaab-legacy",
      "name": "Legacy Arena",
      "team": "NCAA Tournament - Birmingham",
      "league": "NCAAB",
      "city": "Birmingham",
      "country": "USA",
      "lat": 33.5204,
      "lng": -86.8025,
      "capacity": 17500,
      "timezone": "America/Chicago"
    },
    {
      "id": "ncaab-bon-secours",
      "name": "Bon Secours Wellness Arena",
      "team": "NCAA Tournament - Greenville",
      "league": "NCAAB",
      "city": "Greenville",
      "country": "USA",
      "lat": 34.8484,
      "lng": -82.4013,
      "capacity": 16000,
      "timezone": "America/New_York"
    },
    {
      "id": "ncaab-lenovo-tourney",
      "name": "Lenovo Center",
      "team": "NCAA Tournament - Raleigh",
      "league": "NCAAB",
      "city": "Raleigh",
      "country": "USA",
      "lat": 35.8033,
      "lng": -78.7228,
      "capacity": 18680,
      "timezone": "America/New_York"
    },
    {
      "id": "ncaab-ball-arena-tourney",
      "name": "Ball Arena",
      "team": "NCAA Tournament - Denver",
      "league": "NCAAB",
      "city": "Denver",
      "country": "USA",
      "lat": 39.7487,
      "lng": -105.0077,
      "capacity": 19520,
      "timezone": "America/Denver"
    },
    {
      "id": "ncaab-delta-tourney",
      "name": "Delta Center",
      "team": "NCAA Tournament - Salt Lake City",
      "league": "NCAAB",
      "city": "Salt Lake City",
      "country": "USA",
      "lat": 40.7683,
      "lng": -111.9011,
      "capacity": 18306,
      "timezone": "America/Denver"
    },
    {
      "id": "ncaab-prudential-tourney",
      "name": "Prudential Center",
      "team": "NCAA Tournament - Newark",
      "league": "NCAAB",
      "city": "Newark",
      "country": "USA",
      "lat": 40.7336,
      "lng": -74.1711,
      "capacity": 18500,
      "timezone": "America/New_York"
    },
    {
      "id": "ncaab-lucas-tourney",
      "name": "Lucas Oil Stadium",
      "team": "NCAA Tournament - Indianapolis S16",
      "league": "NCAAB",
      "city": "Indianapolis",
      "country": "USA",
      "lat": 39.7601,
      "lng": -86.1639,
      "capacity": 70000,
      "timezone": "America/Indiana/Indianapolis"
    },
    {
      "id": "ncaab-american-airlines-tourney",
      "name": "American Airlines Center",
      "team": "NCAA Tournament - Dallas",
      "league": "NCAAB",
      "city": "Dallas",
      "country": "USA",
      "lat": 32.7905,
      "lng": -96.8103,
      "capacity": 19200,
      "timezone": "America/Chicago"
    },
    {
      "id": "ncaab-chase-tourney",
      "name": "Chase Center",
      "team": "NCAA Tournament - San Francisco",
      "league": "NCAAB",
      "city": "San Francisco",
      "country": "USA",
      "lat": 37.768,
      "lng": -122.3877,
      "capacity": 18064,
      "timezone": "America/Los_Angeles"
    },
    {
      "id": "ncaab-alamodome",
      "name": "Alamodome",
      "team": "NCAA Final Four",
      "league": "NCAAB",
      "city": "San Antonio",
      "country": "USA",
      "lat": 29.4189,
      "lng": -98.4724,
      "capacity": 64000,
      "timezone": "America/Chicago"
    },
    {
      "id": "ncaab-sap-center",
      "name": "SAP Center at San Jose",
      "team": "NCAA Tournament - San Jose",
      "league": "NCAAB",
      "city": "San Jose",
      "country": "USA",
      "lat": 37.3327,
      "lng": -121.9009,
      "capacity": 17562,
      "timezone": "America/Los_Angeles"
    },
    {
      "id": "ncaab-toyota-houston",
      "name": "Toyota Center (Houston)",
      "team": "NCAA Tournament - Houston",
      "league": "NCAAB",
      "city": "Houston",
      "country": "USA",
      "lat": 29.7508,
      "lng": -95.3621,
      "capacity": 18055,
      "timezone": "America/Chicago"
    },
    {
      "id": "ncaab-kfc-tourney",
      "name": "KFC Yum Center",
      "team": "NCAA Tournament - Louisville",
      "league": "NCAAB",
      "city": "Louisville",
      "country": "USA",
      "lat": 38.2547,
      "lng": -85.7569,
      "capacity": 22090,
      "timezone": "America/New_York"
    },
    {
      "id": "nba-kia",
      "name": "Kia Center",
      "team": "Orlando Magic",
      "league": "NBA",
      "city": "Orlando",
      "country": "USA",
      "lat": 28.5392,
      "lng": -81.3839,
      "capacity": 18846,
      "timezone": "America/New_York"
    },
    {
      "id": "mlb-hohokam",
      "name": "Hohokam Stadium",
      "team": "Oakland Athletics",
      "league": "MLB",
      "city": "Mesa",
      "country": "USA",
      "lat": 33.4152,
      "lng": -111.834,
      "capacity": 10000,
      "timezone": "America/Phoenix"
    },
    {
      "id": "nhl-keybank",
      "name": "KeyBank Center",
      "team": "Buffalo Sabres",
      "league": "NHL",
      "city": "Buffalo",
      "country": "USA",
      "lat": 42.8745,
      "lng": -78.8761,
      "capacity": 19070,
      "timezone": "America/New_York"
    },
    {
      "id": "nhl-american-airlines",
      "name": "American Airlines Center",
      "team": "Dallas Stars",
      "league": "NHL",
      "city": "Dallas",
      "country": "USA",
      "lat": 32.7905,
      "lng": -96.8103,
      "capacity": 18532,
      "timezone": "America/Chicago"
    },
    {
      "id": "nfl-sofi-chargers",
      "name": "SoFi Stadium",
      "team": "Los Angeles Chargers",
      "league": "NFL",
      "city": "Inglewood",
      "country": "USA",
      "lat": 33.9535,
      "lng": -118.3392,
      "capacity": 70240,
      "timezone": "America/Los_Angeles"
    },
    {
      "id": "nfl-sofi-rams",
      "name": "SoFi Stadium",
      "team": "Los Angeles Rams",
      "league": "NFL",
      "city": "Inglewood",
      "country": "USA",
      "lat": 33.9535,
      "lng": -118.3392,
      "capacity": 70240,
      "timezone": "America/Los_Angeles"
    },
    {
      "id": "nfl-metlife-giants",
      "name": "MetLife Stadium",
      "team": "New York Giants",
      "league": "NFL",
      "city": "East Rutherford",
      "country": "USA",
      "lat": 40.8135,
      "lng": -74.0745,
      "capacity": 82500,
      "timezone": "America/New_York"
    },
    {
      "id": "nfl-metlife-jets",
      "name": "MetLife Stadium",
      "team": "New York Jets",
      "league": "NFL",
      "city": "East Rutherford",
      "country": "USA",
      "lat": 40.8135,
      "lng": -74.0745,
      "capacity": 82500,
      "timezone": "America/New_York"
    }
  ]
}